{"type": "sensor",  "name": "h1",  "name_iot": "sc01", "ip": "10.0.0.1",    "state": "active", "location": {"lat": -12.999903872390929, "long": -38.50728049190718}}
{"type": "sensor",  "name": "h2",  "name_iot": "sc02", "ip": "10.0.0.2",    "state": "active", "location": {"lat": -12.99989190083449, "long": -38.50724832254857}}
{"type": "sensor",  "name": "h3",  "name_iot": "sc03", "ip": "10.0.0.3",    "state": "active", "location": {"lat": -12.999891757640798, "long": -38.507255230333925}}
{"type": "sensor",  "name": "h4",  "name_iot": "sc04", "ip": "10.0.0.4",    "state": "active", "location": {"lat": -12.999899179855152, "long": -38.50727730689321}}
{"type": "sensor",  "name": "h5",  "name_iot": "sc05", "ip": "10.0.0.5",    "state": "active", "location": {"lat": -12.999892979318894, "long": -38.50728550487296}}
{"type": "sensor",  "name": "h6",  "name_iot": "sc06", "ip": "10.0.0.6",    "state": "active", "location": {"lat": -12.999908155578762, "long": -38.507256050142146}}
{"type": "sensor",  "name": "h7",  "name_iot": "sc07", "ip": "10.0.0.7",    "state": "active", "location": {"lat": -12.999905149018351, "long": -38.507268579988505}}
{"type": "sensor",  "name": "h8",  "name_iot": "sc08", "ip": "10.0.0.8",    "state": "active", "location": {"lat": -12.999906936772145, "long": -38.50726088032069}}
{"type": "sensor",  "name": "h9",  "name_iot": "sc09", "ip": "10.0.0.9",    "state": "active", "location": {"lat": -12.99989641675041, "long": -38.50728759955397}}
{"type": "sensor",  "name": "h10", "name_iot": "sc10", "ip": "10.0.0.10",   "state": "active", "location": {"lat": -12.999887045082643, "long": -38.50727740963489}}
{"type": "sensor",  "name": "h11", "name_iot": "sc11", "ip": "10.0.0.11",   "state": "active", "location": {"lat": -12.999909883415336, "long": -38.50725017993426}}
{"type": "sensor",  "name": "h12", "name_iot": "sc12", "ip": "10.0.0.12",   "state": "active", "location": {"lat": -12.999910525403429, "long": -38.507285110185855}}
{"type": "sensor",  "name": "h13", "name_iot": "sc13", "ip": "10.0.0.13",   "state": "active", "location": {"lat": -12.999893906768325, "long": -38.50725236626413}}
{"type": "sensor",  "name": "h14", "name_iot": "sc14", "ip": "10.0.0.14",   "state": "active", "location": {"lat": -12.999903803358574, "long": -38.50728645620887}}
{"type": "sensor",  "name": "h15", "name_iot": "sc15", "ip": "10.0.0.15",   "state": "active", "location": {"lat": -12.999999, "long": -38.507299}}
{"type": "sensor",  "name": "h16", "name_iot": "sc16", "ip": "10.0.0.16",   "state": "active", "location": {"lat": -12.999999, "long": -38.507299}}
{"type": "sensor",  "name": "h17", "name_iot": "sc17", "ip": "10.0.0.17",   "state": "active", "location": {"lat": -12.999999, "long": -38.507299}}
{"type": "sensor",  "name": "h18", "name_iot": "sc18", "ip": "10.0.0.18",   "state": "active", "location": {"lat": -12.999999, "long": -38.507299}}
{"type": "sensor",  "name": "h19", "name_iot": "sc19", "ip": "10.0.0.19",   "state": "active", "location": {"lat": -12.999999, "long": -38.507299}}
{"type": "sensor",  "name": "h20", "name_iot": "sc20", "ip": "10.0.0.20",   "state": "active", "location": {"lat": -12.999999, "long": -38.507299}}
{"type": "sensor",  "name": "h21", "name_iot": "sc21", "ip": "10.0.0.21",   "state": "active", "location": {"lat": -12.999999, "long": -38.507299}}
{"type": "sensor",  "name": "h22", "name_iot": "sc22", "ip": "10.0.0.22",   "state": "active", "location": {"lat": -12.999999, "long": -38.507299}}
{"type": "sensor",  "name": "h23", "name_iot": "sc23", "ip": "10.0.0.23",   "state": "active", "location": {"lat": -12.999999, "long": -38.507299}}
{"type": "sensor",  "name": "h24", "name_iot": "sc24", "ip": "10.0.0.24",   "state": "active", "location": {"lat": -12.999999, "long": -38.507299}}
{"type": "sensor",  "name": "h25", "name_iot": "sc25", "ip": "10.0.0.25",   "state": "active", "location": {"lat": -12.999999, "long": -38.507299}}
{"type": "sensor",  "name": "h26", "name_iot": "sc26", "ip": "10.0.0.26",   "state": "active", "location": {"lat": -12.999999, "long": -38.507299}}
{"type": "sensor",  "name": "h27", "name_iot": "sc27", "ip": "10.0.0.27",   "state": "active", "location": {"lat": -12.999999, "long": -38.507299}}
{"type": "sensor",  "name": "h28", "name_iot": "sc28", "ip": "10.0.0.28",   "state": "active", "location": {"lat": -12.999999, "long": -38.507299}}
{"type": "sensor",  "name": "h29", "name_iot": "sc29", "ip": "10.0.0.29",   "state": "active", "location": {"lat": -12.999999, "long": -38.507299}}
{"type": "sensor",  "name": "h30", "name_iot": "sc30", "ip": "10.0.0.30",   "state": "active", "location": {"lat": -12.999999, "long": -38.507299}}
{"type": "sensor",  "name": "h31", "name_iot": "sc31", "ip": "10.0.0.31",   "state": "active", "location": {"lat": -12.999999, "long": -38.507299}}
{"type": "sensor",  "name": "h32", "name_iot": "sc32", "ip": "10.0.0.32",   "state": "active", "location": {"lat": -12.999999, "long": -38.507299}}
{"type": "sensor",  "name": "h33", "name_iot": "sc33", "ip": "10.0.0.33",   "state": "active", "location": {"lat": -12.999999, "long": -38.507299}}
{"type": "sensor",  "name": "h34", "name_iot": "sc34", "ip": "10.0.0.34",   "state": "active", "location": {"lat": -12.999999, "long": -38.507299}}
{"type": "sensor",  "name": "h35", "name_iot": "sc35", "ip": "10.0.0.35",   "state": "active", "location": {"lat": -12.999999, "long": -38.507299}}
{"type": "sensor",  "name": "h36", "name_iot": "sc36", "ip": "10.0.0.36",   "state": "active", "location": {"lat": -12.999999, "long": -38.507299}}
{"type": "sensor",  "name": "h37", "name_iot": "sc37", "ip": "10.0.0.37",   "state": "active", "location": {"lat": -12.999999, "long": -38.507299}}
{"type": "sensor",  "name": "h38", "name_iot": "sc38", "ip": "10.0.0.38",   "state": "active", "location": {"lat": -12.999999, "long": -38.507299}}
{"type": "sensor",  "name": "h39", "name_iot": "sc39", "ip": "10.0.0.39",   "state": "active", "location": {"lat": -12.999999, "long": -38.507299}}
{"type": "sensor",  "name": "h40", "name_iot": "sc40", "ip": "10.0.0.40",   "state": "active", "location": {"lat": -12.999999, "long": -38.507299}}
{"type": "sensor",  "name": "h41", "name_iot": "sc41", "ip": "10.0.0.41",   "state": "active", "location": {"lat": -12.999999, "long": -38.507299}}
{"type": "sensor",  "name": "h42", "name_iot": "sc42", "ip": "10.0.0.42",   "state": "active", "location": {"lat": -12.999999, "long": -38.507299}}
{"type": "sensor",  "name": "h43", "name_iot": "sc43", "ip": "10.0.0.43",   "state": "active", "location": {"lat": -12.999999, "long": -38.507299}}
{"type": "sensor",  "name": "h44", "name_iot": "sc44", "ip": "10.0.0.44",   "state": "active", "location": {"lat": -12.999999, "long": -38.507299}}
{"type": "sensor",  "name": "h45", "name_iot": "sc45", "ip": "10.0.0.45",   "state": "active", "location": {"lat": -12.999999, "long": -38.507299}}
{"type": "sensor",  "name": "h46", "name_iot": "sc46", "ip": "10.0.0.46",   "state": "active", "location": {"lat": -12.999999, "long": -38.507299}}
{"type": "sensor",  "name": "h47", "name_iot": "sc47", "ip": "10.0.0.47",   "state": "active", "location": {"lat": -12.999999, "long": -38.507299}}
{"type": "sensor",  "name": "h48", "name_iot": "sc48", "ip": "10.0.0.48",   "state": "active", "location": {"lat": -12.999999, "long": -38.507299}}
{"type": "sensor",  "name": "h49", "name_iot": "sc49", "ip": "10.0.0.49",   "state": "active", "location": {"lat": -12.999999, "long": -38.507299}}
{"type": "sensor",  "name": "h50", "name_iot": "sc50", "ip": "10.0.0.50",   "state": "active", "location": {"lat": -12.999999, "long": -38.507299}}
{"type": "sensor",  "name": "h51", "name_iot": "sc51", "ip": "10.0.0.51",   "state": "active", "location": {"lat": -12.999999, "long": -38.507299}}
{"type": "sensor",  "name": "h52", "name_iot": "sc52", "ip": "10.0.0.52",   "state": "active", "location": {"lat": -12.999999, "long": -38.507299}}
{"type": "sensor",  "name": "h53", "name_iot": "sc53", "ip": "10.0.0.53",   "state": "active", "location": {"lat": -12.999999, "long": -38.507299}}
{"type": "sensor",  "name": "h54", "name_iot": "sc54", "ip": "10.0.0.54",   "state": "active", "location": {"lat": -12.999999, "long": -38.507299}}
{"type": "sensor",  "name": "h55", "name_iot": "sc55", "ip": "10.0.0.55",   "state": "active", "location": {"lat": -12.999999, "long": -38.507299}}
{"type": "sensor",  "name": "h56", "name_iot": "sc56", "ip": "10.0.0.56",   "state": "active", "location": {"lat": -12.999999, "long": -38.507299}}
{"type": "sensor",  "name": "h57", "name_iot": "sc57", "ip": "10.0.0.57",   "state": "active", "location": {"lat": -12.999999, "long": -38.507299}}
{"type": "sensor",  "name": "h58", "name_iot": "sc58", "ip": "10.0.0.58",   "state": "active", "location": {"lat": -12.999999, "long": -38.507299}}
{"type": "sensor",  "name": "h59", "name_iot": "sc59", "ip": "10.0.0.59",   "state": "active", "location": {"lat": -12.999999, "long": -38.507299}}
{"type": "sensor",  "name": "h60", "name_iot": "sc60", "ip": "10.0.0.60",   "state": "active", "location": {"lat": -12.999999, "long": -38.507299}}
{"type": "sensor",  "name": "h61", "name_iot": "sc61", "ip": "10.0.0.61",   "state": "active", "location": {"lat": -12.999999, "long": -38.507299}}
{"type": "sensor",  "name": "h62", "name_iot": "sc62", "ip": "10.0.0.62",   "state": "active", "location": {"lat": -12.999999, "long": -38.507299}}
{"type": "sensor",  "name": "h63", "name_iot": "sc63", "ip": "10.0.0.63",   "state": "active", "location": {"lat": -12.999999, "long": -38.507299}}
{"type": "sensor",  "name": "h64", "name_iot": "sc64", "ip": "10.0.0.64",   "state": "active", "location": {"lat": -12.999999, "long": -38.507299}}
{"type": "sensor",  "name": "h65", "name_iot": "sc65", "ip": "10.0.0.65",   "state": "active", "location": {"lat": -12.999999, "long": -38.507299}}
{"type": "gateway", "name": "h66", "name_iot": "g01",  "ip": "172.27.27.4", "state": "active", "location": {"lat": -12.99991333030281, "long": -38.50725665798616}}
{"type": "gateway", "name": "h67", "name_iot": "g03",  "ip": "172.27.27.6", "state": "active", "location": {"lat": -12.999911905178594, "long": -38.50728820676589}}
{"type": "device",  "name": "h68", "name_iot": "dc01",  "ip": "172.27.27.10",   "state": "active", "location": {"lat": -12.99989, "long": -38.50727}}
{"type": "device",  "name": "h69", "name_iot": "dc02",  "ip": "172.27.27.11",   "state": "active", "location": {"lat": -12.999880000000001, "long": -38.50726}}
{"type": "device",  "name": "h70", "name_iot": "dc03",  "ip": "172.27.27.12",   "state": "active", "location": {"lat": -12.99987, "long": -38.50725}}
{"type": "device",  "name": "h71", "name_iot": "dc04",  "ip": "172.27.27.13",   "state": "active", "location": {"lat": -12.99986, "long": -38.50724}}
{"type": "device",  "name": "h72", "name_iot": "dc05",  "ip": "172.27.27.14",   "state": "active", "location": {"lat": -12.99985, "long": -38.50723}}
